gare_key,nom_so_gar,latitude,longitude
aeroport d'orly,Aéroport d'Orly,48.72955072266279,2.3682641286195816
viroflay rive droite,Viroflay Rive Droite,48.8057041548583,2.169070049430457
boulogne jean jaures,Boulogne - Jean Jaurès,48.842005347289565,2.238887327153073
bolivar,Bolivar,48.880667463456206,2.374495966260425
anatole france,Anatole France,48.89208278596666,2.2850095013824143
arts et metiers,Arts et Métiers,48.86558647849898,2.356736756794993
barbes rochechouart,Barbès-Rochechouart,48.88380394240113,2.3506129993253224
bastille,Bastille,48.85343942756841,2.3695135681565254
bel air,Bel-Air,48.84133824913213,2.4009185367798027
berault,Bérault,48.845470707583566,2.4292051663480003
creteil prefecture,Créteil–Préfecture,48.78000282890859,2.4593631290764044
daumesnil,Daumesnil,48.83944542837951,2.3961828864526327
cardinal lemoine,Cardinal Lemoine,48.84665685124266,2.3516232550160123
chatelet,Châtelet,48.85763141070005,2.3480365654004016
cite,Cité,48.85493637835866,2.3473213170674265
concorde,Concorde,48.86628580458389,2.322943412243541
glaciere,Glacière,48.831129548026645,2.3435116577497763
jourdain,Jourdain,48.87511181695599,2.389415032035528
jules joffrin,Jules Joffrin,48.89241892294572,2.3447646117383565
maraichers,Maraîchers,48.85272512017012,2.406089161868773
marcadet poissonniers,Marcadet-Poissonniers,48.89143955488239,2.349627158227453
michel bizot,Michel Bizot,48.83711700698872,2.402333164555185
la motte picquet grenelle,La Motte Picquet-Grenelle,48.848741665717824,2.2989309117480614
le kremlin bicetre,Le Kremlin-Bicêtre,48.81012995727394,2.362263387127349
ledru rollin,Ledru Rollin,48.85152370843435,2.3751010337556164
madeleine,Madeleine,48.87023324339993,2.325163546827897
ourcq,Ourcq,48.88685693150188,2.385913174273276
palais royal musee du louvre,Palais Royal - Musée du Louvre,48.86234803084025,2.336496460942477
palais royal musee du louvre,Palais Royal - Musée du Louvre,48.86282967190577,2.3368784003342
pernety,Pernety,48.83422588267789,2.318616414425384
picpus,Picpus,48.84506157994489,2.4012890198273484
pierre et marie curie,Pierre et Marie Curie,48.81593076305632,2.37726720151374
place d'italie,Place d'Italie,48.8309272410005,2.356121938797104
notre dame des champs,Notre-Dame-des-Champs,48.84494263342596,2.32877802689008
oberkampf,Oberkampf,48.86496414577929,2.3679014148417363
oberkampf,Oberkampf,48.8650190090373,2.368011378256503
odeon,Odéon,48.85230076309424,2.3397277815930964
pont marie,Pont Marie,48.85357547250359,2.357162571618337
saint philippe du roule,Saint-Philippe du Roule,48.87204586272729,2.3100189324082736
richard lenoir,Richard Lenoir,48.85987362347133,2.371913980100837
ranelagh,Ranelagh,48.855485050404425,2.2701091389418937
raspail,Raspail,48.83896428071056,2.330754192086216
reaumur sebastopol,Réaumur Sébastopol,48.86673355595668,2.352829461254394
reuilly diderot,Reuilly-Diderot,48.84712872224063,2.387025242098632
saint germain des pres,Saint-Germain-des-Prés,48.853718934000206,2.333776138218468
rue saint maur,Rue Saint-Maur,48.864285758645295,2.379741893177554
porte de versailles,Porte de Versailles,48.832676871877865,2.288069457597242
saint lazare,Saint-Lazare,48.87515128791023,2.324380555428912
gare de l'est,Gare de l'Est,48.8759910648072,2.357880771925327
montparnasse bienvenue,Montparnasse-Bienvenüe,48.842102207208605,2.321278562744628
funiculaire montmartre station haute,Funiculaire Montmartre Station Haute,48.88566111270151,2.3425496532584886
pont de neuilly,Pont de Neuilly,48.88470820133096,2.260515079251701
duroc,Duroc,48.84698910613954,2.3170052357372453
fort d'aubervilliers,Fort d'Aubervilliers,48.91494975727623,2.4044090887818643
malesherbes,Malesherbes,48.88289191745414,2.309052264550479
porte dauphine,Porte Dauphine,48.87146657813589,2.2770830184157247
porte de la villette,Porte de la Villette,48.89738989158187,2.385508387668673
trinite d'estienne d'orves,Trinité d'Estienne d'Orves,48.87633026495961,2.333108893760544
tuileries,Tuileries,48.86434377873392,2.330129877112862
porte d'ivry,Porte d'Ivry,48.82182955806905,2.370053603529677
villejuif louis aragon,Villejuif-Louis Aragon,48.78728035004914,2.366988444947912
saint denis porte de paris,Saint-Denis - Porte de Paris,48.92981642738063,2.3572920708824574
porte de la chapelle,Porte de la Chapelle,48.89839212567743,2.358375469325785
bibliotheque francois mitterrand,Bibliothèque François Mitterrand,48.82999019989919,2.375747983215603
gare d'austerlitz,Gare d'Austerlitz,48.842436797924776,2.365184811993381
georges brassens,Georges Brassens,48.82982637901668,2.2956619828222946
didot,Didot,48.82592054697146,2.313380087366044
hotel de ville de bobigny,Hôtel de Ville de Bobigny,48.90653655905889,2.443992334554138
l'abbaye,L'Abbaye,48.92180470451735,2.516333391307286
pont de bondy,Pont de Bondy,48.90470320378033,2.4699715449785766
suresnes longchamp,Suresnes-Longchamp,48.86823878484656,2.221410602618016
villetaneuse universite,Villetaneuse-Université,48.95931814416915,2.3420538013870744
le village,Le Village,48.93335538222905,2.294602989386074
faubourg de l'arche,Faubourg de l'Arche,48.89666439721808,2.2400792520382726
parc pierre lagravere,Parc Pierre Lagravère,48.9175149075793,2.224812188878315
baron le roy,Baron Le Roy,48.83038859059281,2.393449698306368
porte d'aubervilliers,Porte d'Aubervilliers,48.89860117217837,2.3690369493169228
domaine cherioux,Domaine Chérioux,48.77893639308641,2.367405864497285
moulin vert,Moulin Vert,48.7720742166394,2.367815001629962
porte de thiais,Porte de Thiais,48.75957353526184,2.366398000043218
robert wagner,Robert Wagner,48.78512141332816,2.178798590270474
inovel parc nord,Inovel Parc Nord,48.78140432088545,2.209129227294876
mairie de velizy,Mairie de Vélizy,48.78045471153042,2.1914099192732954
paul eluard,Paul Éluard,48.93968870865854,2.345207505927952
clichy sous bois mairie,Clichy-sous-Bois Mairie,48.90786847959308,2.5463803994280108
trois communes,Trois communes,48.77298814363423,2.399359618612088
rouget de lisle,Rouget de Lisle,48.76391487107731,2.405808944037218
cimetiere de saint denis,Cimetière de Saint-Denis,48.936389147061696,2.3636407021979244
escadrille normandie niemen,Escadrille Normandie-Niémen,48.91270497529589,2.435420992985438
suzanne lenglen,Suzanne Lenglen,48.83331427148139,2.2768549764108004
petit pierrefitte,Petit Pierrefitte,48.952680187232,2.357983075325655
hotel de ville de la courneuve,Hôtel de Ville de La Courneuve,48.92740289165738,2.3924711193168307
maurice lachatre,Maurice Lachâtre,48.91917902772585,2.41383718095636
caroline aigle,Caroline Aigle,48.738603872058455,2.369907789255685
velizy 2,Vélizy 2,48.78496976326487,2.220009516856533
villetaneuse universite,Villetaneuse - Université,48.96000579243069,2.3423685974925013
pierrefitte stains,Pierrefitte Stains,48.96013454228842,2.3672565834726305
la briqueterie,La Briqueterie,48.80721433286051,2.374911599354834
bondy,Bondy,48.89395181173609,2.480205915260598
asnieres sur seine,Asnières-sur-Seine,48.90598139395308,2.283199280222817
ermont halte,Ermont-Halte,48.990313583902434,2.2632853539998323
pont sur yonne,Pont-sur-Yonne,48.28627700972752,3.2017673450549218
liancourt saint pierre,Liancourt-Saint-Pierre,49.22067083172213,1.9054853050824927
lavilletertre,Lavilletertre,49.20229110525427,1.9206110857457552
la ferte milon,La Ferté-Milon,49.17961925767545,3.1206923972407514
chateau landon,Château-Landon,48.87844430039445,2.3619653022299603
fontaine le port,Fontaine-le-Port,48.48737309459969,2.750483097368812
chaumont en vexin,Chaumont-en-Vexin,49.26119849697099,1.873097212586157
coulommiers,Coulommiers,48.80786914008054,3.081648526077241
breval,Bréval,48.94345963288564,1.5417749316626164
champbenoist poigny,Champbenoist-Poigny,48.545296265858845,3.286679528098301
la frette montigny,La Frette-Montigny,48.979887167643504,2.1803421469117485
chezy sur marne,Chézy-sur-Marne,48.991889160257294,3.364379893535808
epinay villetaneuse,Épinay Villetaneuse,48.95900165546215,2.3283518828743333
conflans fin d'oise,Conflans-Fin-d'Oise,48.99033259105296,2.073955308732424
conflans fin d'oise,Conflans-Fin-d'Oise,48.99033252838146,2.0739471888196928
laroche migennes,Laroche-Migennes,47.960888145584505,3.512888761289445
alexandre dumas,Alexandre Dumas,48.85622809125615,2.3946756547920462
buzenval,Buzenval,48.85197520932561,2.401927284511547
censier daubenton,Censier-Daubenton,48.84023383632875,2.3516064753021904
chateau rouge,Château Rouge,48.88671096804134,2.349559430194618
corentin cariou,Corentin Cariou,48.89465585833331,2.382160158371538
jaures,Jaurès,48.883193321300105,2.371933128614294
la motte picquet grenelle,La Motte Picquet-Grenelle,48.84957521390955,2.298625127144874
stalingrad,Stalingrad,48.88432566304799,2.3673720385654686
saint augustin,Saint-Augustin,48.87447567664767,2.322001788877926
billancourt,Billancourt,48.83173796437048,2.2374367869806067
charonne,Charonne,48.855094494476994,2.384699760132844
richelieu drouot,Richelieu-Drouot,48.87169298457071,2.338463081008744
bonne nouvelle,Bonne Nouvelle,48.87059047801112,2.348491131078989
esplanade de la defense,Esplanade de la Défense,48.88813847761218,2.249792769009765
adrienne bolland,Adrienne Bolland,48.872097029931695,2.40862005517699
dugny la courneuve,Dugny - La Courneuve,48.94393432566968,2.411121754896824
angelique compoint,Angélique Compoint,48.89783032629845,2.3382304271335834
coeur d'orly,Coeur d'Orly,48.7336993470907,2.371412538219709
epinettes pouchet,Épinettes - Pouchet,48.89754933179902,2.3249055851394216
bagneux lucie aubrac,Bagneux - Lucie Aubrac,48.80363023251622,2.3180536133374328
mairie d'aubervilliers,Mairie d'Aubervilliers,48.913710545549606,2.380735606395094
allee royale,Allée Royale,48.81564572892323,2.0788334686892225
saint nom la breteche foret de marly,Saint-Nom La Bretèche - Forêt de Marly,48.8679501427926,2.0508259503050965
malabry,Malabry,48.76932378942164,2.249652962862064
cite jardin,Cité-Jardin,48.76556476446966,2.259576114866507
lavallee,LaVallée,48.76142385263188,2.290444727862659
champlan,Champlan,48.70854821544341,2.280123756150529
gravigny balizy,Gravigny-Balizy,48.68571362596709,2.317626404411973
epinay sur orge,Épinay-sur-Orge,48.67063926645666,2.335359426259652
bois briard,Bois Briard,48.622133794575866,2.415448100577441
chaville rive droite,Chaville Rive Droite,48.81257171717767,2.188259860000294
porte maillot,Porte Maillot,48.87793268655634,2.282976188020842
esbly,Esbly,48.90307291510794,2.810248220730061
bouffemont moisselles,Bouffémont-Moisselles,49.045169460276206,2.3229178462271083
boissy saint leger,Boissy-Saint-Léger,48.75218572078873,2.504559838342837
crouy sur ourcq,Crouy-sur-Ourcq,49.09188299627487,3.0626904069870564
ablon,Ablon,48.7255353048612,2.4195650243879334
aeroport charles de gaulle 1,Aéroport Charles De Gaulle 1,49.009756452138376,2.5612326952251063
arcueil cachan,Arcueil-Cachan,48.79889250008068,2.328136923064751
aulnay sous bois,Aulnay-sous-Bois,48.93219600596196,2.495513142584314
bagneaux sur loing,Bagneaux-sur-Loing,48.22954993747097,2.7039360529619154
bellevue,Bellevue,48.81894780093774,2.2298080037295134
belloy saint martin,Belloy-Saint-Martin,49.09840026247686,2.3612705552410564
beynes,Beynes,48.859998730438754,1.875595590302068
le coudray montceaux,Le Coudray-Montceaux,48.56611782073621,2.492713002881577
crecy la chapelle,Crécy-la-Chapelle,48.8595573168744,2.9057369645485345
emerainville pontault combault,Émerainville-Pontault-Combault,48.80584078961123,2.619194412455653
epinay sur orge,Épinay-sur-Orge,48.66948372520816,2.3326229292104723
epluches,Épluches,49.05510176049029,2.1227359082735706
cergy prefecture,Cergy-Préfecture,49.036463980725365,2.079534939997373
cesson,Cesson,48.56494949567092,2.594551816007613
chanteloup les vignes,Chanteloup-les-Vignes,48.97036693394952,2.0275187756771844
chaville velizy,Chaville-Vélizy,48.79972882534397,2.183684109854236
choisy le roi,Choisy-le-Roi,48.76378680955172,2.411386724936104
clichy levallois,Clichy-Levallois,48.89763744791706,2.2974199481466626
gargenville,Gargenville,48.982979763205634,1.8089078287123903
groslay,Groslay,48.98431596206594,2.3534072458696844
val de fontenay,Fontenay-sous-Bois,48.84379435193279,2.463501419487552
frepillon,Frépillon,49.04543025423757,2.197087678318263
gagny,Gagny,48.88373428097724,2.5254342507658434
marne la vallee chessy,Marne-la-Vallée-Chessy,48.86995013493981,2.7822267234490368
guillerval,Guillerval,48.37452501337593,2.059912347637065
fontainebleau avon,Fontainebleau Avon,48.41637703300661,2.726661533081673
joinville le pont,Joinville-le-Pont,48.82103881506317,2.4638567953623163
juvisy,Juvisy,48.689764622382576,2.382846099452605
juziers,Juziers,48.9922412812868,1.845134443502388
la courneuve aubervilliers,La Courneuve-Aubervilliers,48.92435387966093,2.386388291064694
la croix de berny fresnes,La Croix-de-Berny-Fresnes,48.76169369040741,2.30422734755186
maisons laffitte,Maisons-Laffitte,48.94550297190666,2.1450174376542583
meudon val fleury,Meudon-Val-Fleury,48.80749262578013,2.240883069335648
mitry claye,Mitry-Claye,48.97585875402046,2.6424063023101896
la garenne colombes,La Garenne-Colombes,48.90963293312602,2.2396841171276165
laplace,Laplace,48.80829658863144,2.334354309639648
lardy,Lardy,48.52040359106998,2.254739702427517
le mee,Le Mée,48.538775256627815,2.6255221550663017
les saules,Les Saules,48.74507216689389,2.4175209778964915
les yvris noisy le grand,Les Yvris-Noisy-le-Grand,48.82315185583432,2.579837253911679
palaiseau,Palaiseau,48.71694628758515,2.245672514581906
pontoise,Pontoise,49.04664576264113,2.0951950672259687
pont petit,Pont-Petit,49.06115390082607,2.131538271631698
saint remy les chevreuse,Saint-Rémy-lès-Chevreuse,48.70275104207729,2.071242846320578
savigny sur orge,Savigny-sur-Orge,48.676446656997726,2.3524814010489976
sevres ville d'avray,Sèvres-Ville-d'Avray,48.82723877540951,2.200721257947835
presles courcelles,Presles-Courcelles,49.11406195154224,2.287915343526005
rambouillet,Rambouillet,48.64422195345786,1.8329354703489624
robinson,Robinson,48.78023729710839,2.281430595437462
saint cloud,Saint-Cloud,48.84610294864102,2.217621080890434
saint cyr,Saint-Cyr,48.79870763528835,2.0718470059294014
sainte colombe septveilles,Sainte-Colombe-Septveilles,48.529148966826575,3.255368150025012
saint maur creteil,Saint-Maur-Créteil,48.80620002476372,2.4727204038021715
villiers neauphle pontchartrain,Villiers-Neauphle Pontchartrain,48.81532862049073,1.8775042043136383
vosves,Vosves,48.515151454141154,2.5993042659192627
vauboyen,Vauboyen,48.75883616371208,2.193014615252485
villaines,Villaines,49.07927205498809,2.3505136376252613
villepinte,Villepinte,48.962709513300425,2.512644627819613
marchezais broue,Marchezais - Broué,48.76835208365703,1.513637244887038
montargis,Montargis,48.00660145772837,2.743192243197975
creil,Creil,49.26394414450534,2.4689141153510383
chatelet,Les Halles,48.86251523497548,2.345785860039181
antony,Antony,48.754946525531125,2.300986855734952
terminal 3 roissypole,Terminal 3 - Roissypole,49.01000186615113,2.5605588439018763
haussmann saint lazare,Haussmann-Saint-Lazare,48.8750292564036,2.3267224755800515
noisiel,Noisiel,48.84350923944823,2.616678624694602
musee d'orsay,Musée d'Orsay,48.86035143402621,2.3267597744418103
saint fargeau,Saint-Fargeau,48.56507294103619,2.542609449806005
villeneuve triage,Villeneuve-Triage,48.74450070215072,2.438668340778227
gare de l'est,Gare de l'Est,48.87737561987964,2.3594566169442075
gare de lyon,Gare de Lyon,48.84476017126674,2.373593653262281
la defense,La Défense,48.89218707644951,2.237018056395014
les baconnets,Les Baconnets,48.73968104253053,2.287667495463073
montgeroult courcelles,Montgeroult-Courcelles,49.08049370702577,2.003715373018928
vaux sur seine,Vaux-sur-Seine,49.00712724722576,1.963551770278396
versailles rive droite,Versailles Rive Droite,48.809482263917104,2.135087456598118
creteil pompadour,Créteil Pompadour,48.77126603812107,2.4353063397063224
havre caumartin,Havre-Caumartin,48.873513389595466,2.327543081726972
gare du nord,Gare du Nord,48.87979369411629,2.355791907531139
invalides,Invalides,48.86002845820203,2.3139151192031537
cite universitaire,Cité Universitaire,48.82035003419018,2.3385807496409954
gennevilliers,Gennevilliers,48.93344984077206,2.307089653527024
epinay sur seine,Épinay-sur-Seine,48.95456256277917,2.302305082030494
la defense,La Défense,48.8921233638325,2.237213536457713
rosa parks,Rosa Parks,48.897552809900425,2.3733837959986004
botzaris,Botzaris,48.87949310793359,2.3885668704791967
rue des boulets,Rue des Boulets,48.85216836965024,2.3896255399759547
boissiere,Boissière,48.86698310944948,2.290058833580487
avenue emile zola,Avenue Émile Zola,48.84699703133652,2.2950191304763616
bastille,Bastille,48.85343696230164,2.368736572626169
belleville,Belleville,48.87184879466127,2.3765936840968225
danube,Danube,48.88181610818685,2.394012398359364
dupleix,Dupleix,48.85043454901342,2.293612437187804
charles michels,Charles Michels,48.8465346367312,2.2859992220590075
vincennes,Château de Vincennes,48.84445639456913,2.440439978057246
chevaleret,Chevaleret,48.83494772325454,2.3681263304132094
hotel de ville,Hôtel de Ville,48.85747798252935,2.3515775629949967
iena,Iéna,48.8647940649002,2.29416201539428
jasmin,Jasmin,48.85250409151217,2.268176749423332
jussieu,Jussieu,48.84595066575015,2.355050264434754
malakoff rue etienne dolet,Malakoff - Rue Étienne Dolet,48.81530753120022,2.2970777969729843
marx dormoy,Marx Dormoy,48.89048545474661,2.359995766394621
michel ange molitor,Michel Ange-Molitor,48.84524756545478,2.261623492404886
michel ange molitor,Michel Ange-Molitor,48.84505817231375,2.261745124963672
mirabeau,Mirabeau,48.84713100819624,2.2727637533161595
miromesnil,Miromesnil,48.87376998959543,2.31445603617697
les sablons,Les Sablons,48.88101649749112,2.272238940611057
liege,Liège,48.87963476065682,2.3270222008895027
mairie de clichy,Mairie de Clichy,48.90323367878661,2.306010915009083
mairie de saint ouen,Mairie de Saint-Ouen,48.91196489788089,2.3339248904797145
mouton duvernet,Mouton-Duvernet,48.83111266037533,2.3297050126201846
odeon,Odéon,48.85193594203498,2.340613006406504
opera,Opéra,48.86993903518653,2.332592489355912
pont de sevres,Pont de Sèvres,48.829746119994304,2.231028100202621
segur,Ségur,48.84706613315245,2.3074022406196404
porte de vanves,Porte de Vanves,48.82779554349536,2.305534669653895
porte d'orleans,Porte d'Orléans,48.82341162898739,2.3255756362122453
rambuteau,Rambuteau,48.86120499033039,2.353495741491146
republique,République,48.86702678847436,2.364247995104706
republique,République,48.86782709972698,2.3637404371950392
rue de la pompe,Rue de la Pompe,48.86394013069539,2.2784416488331494
saint fargeau,Saint-Fargeau,48.87210144213156,2.4045149423791043
saint francois xavier,Saint-François-Xavier,48.85144170744032,2.314408121472487
saint georges,Saint-Georges,48.87817339105656,2.337857510381017
saint marcel,Saint-Marcel,48.83842729696758,2.360967167698855
vaneau,Vaneau,48.8488163733696,2.3212578628937472
varenne,Varenne,48.85687137924919,2.315056637317088
villejuif louis aragon,Villejuif - Louis Aragon,48.78756279294567,2.367804105603498
front populaire,Front Populaire,48.90656714598029,2.3659203194009595
porte de la chapelle,Porte de la Chapelle,48.89724528809305,2.359507868815593
saint sebastien froissart,Saint-Sébastien-Froissart,48.861168864595705,2.3672108677856154
gare de l'est,Gare de l'Est,48.8762727026041,2.3580579070747385
assemblee nationale,Assemblée Nationale,48.86078696352672,2.3209981919540845
gallieni,Gallieni,48.8653353181603,2.416697272847641
hoche,Hoche,48.891228593203465,2.4023521439004725
hotel de ville,Hôtel de Ville,48.85745183174312,2.3510084614060265
la courneuve 8 mai 1945,La Courneuve 8 Mai 1945,48.92078596906289,2.410598616469426
malakoff plateau de vanves,Malakoff - Plateau de Vanves,48.822583707737074,2.298464191958535
maison blanche,Maison Blanche,48.82218265855656,2.358551348202204
porte de champerret,Porte de Champerret,48.886006151507,2.293529966337255
tolbiac,Tolbiac,48.82642601087568,2.357245650758686
trocadero,Trocadéro,48.863065020217945,2.286243169328236
victor hugo,Victor Hugo,48.86979855646069,2.285335094686169
poissonniere,Poissonnière,48.877100185798646,2.3487755574768467
porte de charenton,Porte de Charenton,48.83273670175476,2.400310403025077
bobigny pablo picasso,Bobigny Pablo Picasso,48.90653600856719,2.4500061663133703
porte de choisy,Porte de Choisy,48.81976126757109,2.3640154621825227
porte de bagnolet,Porte de Bagnolet,48.86343374196473,2.4088324651439725
porte de montreuil,Porte de Montreuil,48.85298727790375,2.410741136126437
porte doree,Porte Dorée,48.83552220834931,2.4066571471351024
porte de saint ouen,Porte de Saint-Ouen,48.89767181948477,2.3298303344938858
porte de clignancourt,Porte de Clignancourt,48.89804145033781,2.3450784496454857
allee de la tour rendez vous,Allée de la Tour Rendez-Vous,48.897143819382286,2.506408247006797
gaston roulaud,Gaston Roulaud,48.91409326350574,2.431278002116335
hopital delafontaine,Hôpital Delafontaine,48.933586403729805,2.37108317162386
jean rostand,Jean Rostand,48.90781431666948,2.454357578777375
la ferme,La Ferme,48.90966636535197,2.437487802213591
montsouris,Montsouris,48.82150891739616,2.333339832857645
jean moulin,Jean Moulin,48.82471101880376,2.318829692620226
stade charlety,Stade Charléty,48.81950050990851,2.345803581204492
stade geo andre,Stade Géo André,48.9243751434303,2.4020734129969097
lacepede,Lacépède,48.95587687488742,2.3115263086926325
chemin des reniers,Chemin des Reniers,48.93460856766366,2.3214951981707097
parc des chanteraines,Parc des Chanteraines,48.93394363147803,2.3132570729552704
timbaud,Timbaud,48.93339059719431,2.300626211232597
charlebourg,Charlebourg,48.9076645839442,2.238309302290676
victor basch,Victor Basch,48.91404768156709,2.2295716132741976
marie de miribel,Marie de Miribel,48.85870401022034,2.409685685604103
montempoivre,Montempoivre,48.83986483182992,2.408874539222469
maryse bastie,Maryse Bastié,48.82435490190002,2.3776615306957374
hopital robert debre,Hôpital Robert Debré,48.87945550325808,2.4012336448556546
butte du chapeau rouge,Butte du Chapeau Rouge,48.88501678919352,2.3967512888038973
ella fitzgerald,Ella Fitzgerald,48.89742996177998,2.394968407167715
les cholettes,Les Cholettes,48.9774930899753,2.372242923708274
suzanne valadon,Suzanne Valadon,48.95912109831728,2.3587425044757624
guynemer,Guynemer,48.94820812758012,2.35746152627313
lamartine,Lamartine,48.78310755044937,2.367157833315664
l'onde,L’Onde,48.78198667250012,2.180493750928926
vauban,Vauban,48.807169846835606,2.294091244318829
division leclerc,Division Leclerc,48.79446888451293,2.272650344658386
soleil levant,Soleil Levant,48.7903330019282,2.2633891660151555
meudon la foret,Meudon-la-Forêt,48.78353933276511,2.225280295281189
jean vilar,Jean Vilar,48.95272632989772,2.3434612795268257
diane arbus,Diane Arbus,48.89832910439932,2.351712071721624
porte d'asnieres,Porte d'Asnières,48.88973995110524,2.3032760496929354
clichy montfermeil,Clichy - Montfermeil,48.90457306647732,2.555014267014263
notre dame des anges,Notre-Dame-des-Anges,48.90091968065114,2.556069026584472
porte de pantin,Porte de Pantin,48.889007649506944,2.3956810747116024
beethoven concorde,Beethoven - Concorde,48.798822652969584,2.3815109717362284
les saules,Les Saules,48.746942402605214,2.4163208947708155
petit noisy,Petit Noisy,48.90041730406598,2.4654604813583547
les beatus,Les Béatus,48.9515983836568,2.3207554481259183
georges millandy,Georges Millandy,48.783500975704136,2.2309835589388727
dewoitine,Dewoitine,48.78362462215808,2.2144335020501766
porte d'issy,Porte d'Issy,48.83169659310701,2.281470444083868
pablo neruda,Pablo Neruda,48.956671846031206,2.34310923572538
stains la cerisaie,Stains La Cerisaie,48.95473074848043,2.3917951396342727
parc pr,Parc PR,49.00897846095018,2.54483189791712
terminal 1,Terminal 1,49.01340270477389,2.541951696822008
noisy le grand mont d'est,Noisy-le-Grand-Mont d'Est,48.8408443721592,2.549900487641346
bry sur marne,Bry-sur-Marne,48.84519309666404,2.525615908439546
dreux,Dreux,48.73117969370124,1.3704666816488706
gisors,Gisors,49.285389402250345,1.784906878325775
aulnay sous bois,Aulnay-sous-Bois,48.93195908636717,2.4971165154707387
chaville rive gauche,Chaville Rive Gauche,48.8051956691424,2.189278118558865
champagne sur seine,Champagne-sur-Seine,48.40728299408842,2.798922442550968
gazeran,Gazeran,48.62603636859391,1.773248849448224
la norville,La Norville,48.59111919975116,2.266213853170556
jouy,Jouy,48.51004672572785,1.5575946080058871
porte de clichy,Porte de Clichy,48.8946243340091,2.3142338462894254
avron,Avron,48.85190531895693,2.3979973148307456
creteil l'echat,Créteil–L’Échat,48.79668213499687,2.4494128051458075
eglise de pantin,Église de Pantin,48.89314998575984,2.412763044547627
campo formio,Campo Formio,48.8351525357408,2.3585662563494667
chateau d'eau,Château d'Eau,48.87262083992817,2.356153947450339
chatelet,Châtelet,48.856942736159496,2.348147481005499
guy moquet,Guy Môquet,48.892206827747096,2.3272198679191285
monceau,Monceau,48.88032518647405,2.308773835955807
place de clichy,Place de Clichy,48.88399982489613,2.32853013989038
stalingrad,Stalingrad,48.88428415025653,2.365821546282089
stalingrad,Stalingrad,48.88479825198408,2.36958085557783
rome,Rome,48.88233342370702,2.3218017310631685
grands boulevards,Grands Boulevards,48.87125654594185,2.34456106066273
balard,Balard,48.83629530154249,2.278330259866024
richelieu drouot,Richelieu-Drouot,48.87219090864884,2.338857159453805
basilique de saint denis,Basilique de Saint-Denis,48.93805733112318,2.360792492279713
mareil marly,Mareil-Marly,48.880991440750805,2.0791773946942684
fourqueux bel air,Fourqueux - Bel Air,48.89473714937683,2.0699743067802774
lisiere pereire,Lisière Pereire,48.90320461545236,2.0729714565656736
jardin parisien,Jardin Parisien,48.79007388694618,2.252720457075606
massy,Massy-Palaiseau,48.724729144431606,2.257515004584038
chilly mazarin,Chilly-Mazarin,48.70068080405286,2.307841187260169
petit vaux,Petit-Vaux,48.67638132516642,2.333249458612988
parc du chateau,Parc du Château,48.66789284567248,2.3547385741448146
square sainte odile,Square Sainte-Odile,48.88737589044046,2.296965185039929
thiais orly,Thiais - Orly,48.746978700693774,2.372839696785623
hopital bicetre,Hôpital Bicêtre,48.80981003194872,2.349750100298353
aeroport d'orly,Aéroport d'Orly,48.7280833904763,2.3625914696897388
massy,Massy-Palaiseau,48.72599709205871,2.2583229936114426
pierrefitte stains,Pierrefitte Stains,48.96375542962029,2.3721031384025686
acheres ville,Achères-Ville,48.97066504832262,2.0777317645655984
athis mons,Athis-Mons,48.71262898747626,2.403633104908492
ecouen ezanville,Écouen-Ézanville,49.023206378062014,2.362222981011115
enghien les bains,Enghien-Les-Bains,48.972749119759264,2.307137032071533
buno gironville,Buno-Gironville,48.37138329230292,2.387209797198101
chars,Chars,49.16267058077504,1.9369286357858264
chatelet,Châtelet-Les Halles,48.86182227279812,2.3470126872387564
corbeil essonnes,Corbeil-Essonnes,48.613427913594734,2.472933650458744
gennevilliers,Gennevilliers,48.93289616644866,2.307943234074898
goussainville,Goussainville,49.02316199903104,2.4621689661352346
franconville le plessis bouchard,Franconville-Le Plessis-Bouchard,48.99371348038584,2.234276393996537
garches marnes la coquette,Garches-Marnes-la-Coquette,48.83828254600232,2.1871107110950185
gros noyer saint prix,Gros-Noyer-Saint-Prix,48.99609884257494,2.259655619057619
evry,Évry,48.63426831236897,2.4525733922724497
faremoutiers pommeuse,Faremoutiers-Pommeuse,48.80865396493308,2.9931098934191773
houilles carrieres sur seine,Houilles-Carrières-sur-Seine,48.92037937392436,2.185353376302864
la celle saint cloud,La Celle-Saint-Cloud,48.84271995435487,2.138125058777295
mantes la jolie,Mantes-la-Jolie,48.98950250803051,1.703016134167223
mareil sur mauldre,Mareil-sur-Mauldre,48.89298157657328,1.8718454136365528
maule,Maule,48.90955319974533,1.8568555169228915
melun,Melun,48.52724332146016,2.654990282141888
mery sur oise,Méry-sur-Oise,49.05804781176635,2.191244759191912
montereau,Montereau,48.37952610418488,2.9425234127023705
le bourget,Le Bourget,48.93073957031752,2.4257914255599538
le raincy villemomble montfermeil,Le Raincy-Villemomble-Montfermeil,48.88886574230645,2.513157532747812
les boullereaux champigny,Les Boullereaux-Champigny,48.82484856949889,2.5118555534510074
lieusaint moissy,Lieusaint-Moissy,48.62837555172384,2.569583548236461
livry sur seine,Livry-sur-Seine,48.51026517526803,2.678973982691401
lizy sur ourcq,Lizy-sur-Ourcq,49.02175726863726,3.0317584458367777
longueville,Longueville,48.513754590975296,3.25003498258305
luxembourg,Luxembourg,48.84543415048044,2.339762849560476
persan beaumont,Persan-Beaumont,49.14771950559885,2.277823190629398
nanteuil saacy,Nanteuil-Saâcy,48.97402658047848,3.2193028141920896
nation,Nation,48.84823711041019,2.395823588826126
mormant,Mormant,48.61401524181304,2.8882528940730747
nangis,Nangis,48.561947850024765,3.0120121424808315
orry la ville coye la foret,Orry-la-Ville-Coye-la-Forêt,49.13828637527201,2.4901789854211955
plaisir les clayes,Plaisir-les-Clayes,48.8309595286468,1.9600265602482685
poissy,Poissy,48.93326540612855,2.041072289675926
pont de l'alma,Pont de l'Alma,48.86266245169435,2.300989969386769
ponthierry pringy,Ponthierry-Pringy,48.53513976698965,2.544348950368586
porchefontaine,Porchefontaine,48.79652818117568,2.152378660253372
saint ouen l'aumone liesse,Saint-Ouen-l'Aumône-Liesse,49.033987636271455,2.128263873923673
sannois,Sannois,48.97098803438473,2.263830527175666
sartrouville,Sartrouville,48.93773606341459,2.1570864964698178
savigny le temple nandy,Savigny-le-Temple-Nandy,48.59556383799178,2.5839477110612505
sermaise,Sermaise,48.5358065092437,2.069381524887472
sevres rive gauche,Sèvres Rive Gauche,48.82121703789382,2.2148597954375497
puteaux,Puteaux,48.88338381382527,2.233691920150409
rungis la fraternelle,Rungis-La Fraternelle,48.74019544820277,2.351633198171911
sainte genevieve des bois,Sainte-Geneviève-des-Bois,48.65281140144265,2.312736251060263
saint martin d'etampes,Saint-Martin-d'Étampes,48.42736258418355,2.145246592903116
viroflay rive gauche,Viroflay Rive Gauche,48.800718463863554,2.1713898127563787
verneuil l'etang,Verneuil-l'Etang,48.64437362491682,2.8251699329703728
vernouillet verneuil,Vernouillet-Verneuil,48.981445969410295,1.9831433520864976
thomery,Thomery,48.39430843875827,2.764028188787889
torcy,Torcy,48.83964551726303,2.655130086641314
tournan,Tournan,48.7394872073018,2.758824548674894
trappes,Trappes,48.77480280977952,2.006566869057666
triel sur seine,Triel-sur-Seine,48.98107191008837,2.00593089306856
us,Us,49.099650121708414,1.9705357223217728
villeneuve le roi,Villeneuve-le-Roi,48.73983069943655,2.4263998204748227
villeneuve saint georges,Villeneuve-Saint-Georges,48.73063829288859,2.446226445438707
villepreux les clayes,Villepreux-les-Clayes,48.82365326874928,1.992864535155556
villiers le bel gonesse arnouville,Villiers-le-Bel-Gonesse-Arnouville,48.99377714689272,2.416187488926984
epernon,Épernon,48.60507627758084,1.6816457804037126
nanteuil le haudouin,Nanteuil-le-Haudouin,49.14288419832468,2.79445455010732
le plessis belleville,Le Plessis-Belleville,49.09612080982237,2.744686207442424
mareuil sur ourcq,Mareuil-sur-Ourcq,49.13547414375096,3.075626562947476
garges sarcelles,Garges-Sarcelles,48.9771607154856,2.39067488093308
gare de lyon,Gare de Lyon,48.84413934985302,2.373259976710645
invalides,Invalides,48.862884804554966,2.31251355492596
le bras de fer,Le Bras-de-Fer,48.62333224107224,2.4514090955932755
le stade,Le Stade,48.931903495003134,2.260965473528721
nemours saint pierre,Nemours-Saint-Pierre,48.267758109949376,2.6856470899397507
saint leu la foret,Saint-Leu-la-Forêt,49.01531915187679,2.242838660564836
viroflay rive droite,Viroflay Rive Droite,48.80547779177516,2.1676690319603966
val de fontenay,Val de Fontenay,48.85409607826304,2.4886964657999355
boulainvilliers,Boulainvilliers,48.85697199584854,2.2747933246088805
bourron marlotte grez,Bourron-Marlotte-Grez,48.33268364471057,2.6924801905840665
cormeilles en parisis,Cormeilles-en-Parisis,48.96866508306206,2.193092468694061
bruyeres sur oise,Bruyères-sur-Oise,49.155127360533164,2.3248275129679965
cite universitaire,Cité Universitaire,48.8210896506153,2.338978472013181
grigny centre,Grigny-Centre,48.65484933543004,2.396783503415441
vulaines sur seine samoreau,Vulaines-sur-Seine-Samoreau,48.4305048185211,2.752998384995991
versailles chantiers,Versailles-Chantiers,48.79513817936349,2.135156224100022
denfert rochereau,Denfert-Rochereau,48.8342929804732,2.33285230996089
charles de gaulle etoile,Charles De Gaulle-Étoile,48.87481054112289,2.2958012223518693
nation,Nation,48.847579367477074,2.395554512170688
bouray,Bouray,48.53289010324473,2.2900825138403964
bourg la reine,Bourg-la-Reine,48.78031379639699,2.312307716888594
boutigny,Boutigny,48.43449061286291,2.376672818506992
bievres,Bièvres,48.75102327511976,2.2158608573516494
angerville,Angerville,48.3112962747666,2.0035250000979894
argenteuil,Argenteuil,48.94679694208001,2.25789748402742
avenue du president kennedy,Avenue du Président Kennedy,48.85364805716894,2.2794870649625665
ermont eaubonne,Ermont-Eaubonne,48.98064610042599,2.272084772747632
breuillet,Breuillet,48.57750848943184,2.192063068770897
champ de courses d'enghien,Champ de Courses d'Enghien,48.9795166182837,2.2921687025986754
chartrettes,Chartrettes,48.48707639524809,2.6950373151676708
chelles gournay,Chelles-Gournay,48.87414408301458,2.583331158055108
le chenay gagny,Le Chénay-Gagny,48.87715783970278,2.5528816497808324
garges sarcelles,Garges-Sarcelles,48.976747848293925,2.3905936526418383
gif sur yvette,Gif-sur-Yvette,48.698196976301936,2.136566717058361
essonnes robinson,Essonnes-Robinson,48.605555826378406,2.4624564927796966
la barre ormesson,La Barre-Ormesson,48.966326544842126,2.3165820711557
malesherbes,Malesherbes,48.29359176873126,2.401133894429584
marolles en hurepoix,Marolles-en-Hurepoix,48.56559386282182,2.2909244684897176
maurecourt,Maurecourt,48.986638844720666,2.059569496216215
mennecy,Mennecy,48.5705968587192,2.432098533660357
meulan hardricourt,Meulan-Hardricourt,49.00576253682855,1.9017819799477345
monnerville,Monnerville,48.34841601424845,2.0322397733867006
la ferte sous jouarre,La Ferté-sous-Jouarre,48.95081998757723,3.1249090207473285
la varenne chennevieres,La Varenne-Chennevières,48.79538383561484,2.513423298184714
lagny thorigny,Lagny-Thorigny,48.88218913670531,2.7060141797599284
le guichet,Le Guichet,48.70540392478546,2.1927348848067565
le parc de saint maur,Le Parc de Saint-Maur,48.80537766216148,2.4863497487790744
le plessis chenet,Le Plessis-Chenet,48.573807793559,2.479469169601778
le vesinet le pecq,Le Vésinet-Le Pecq,48.89797344633644,2.122117447472966
les vallees,Les Vallées,48.91363686305641,2.257326023785208
l'etang la ville,L'Étang-la-Ville,48.868064423247134,2.076719102677291
limay,Limay,48.98417275530593,1.7477861829061607
l'isle adam parmain,L'Isle-Adam-Parmain,49.11478397008508,2.2100198692921973
louvres,Louvres,49.04932560088567,2.5017580658464627
maisons alfort alfortville,Maisons-Alfort-Alfortville,48.80204938032392,2.426482408484048
palaiseau villebon,Palaiseau-Villebon,48.70814058364534,2.237314364639455
nezel aulnay,Nézel-Aulnay,48.93871923993319,1.8405170296579705
nogent le perreux,Nogent-le-Perreux,48.83934193918028,2.4941880553461155
noisy champs,Noisy-Champs,48.84288484082361,2.5800859119743564
santeuil le perchay,Santeuil-le-Perchay,49.123451854049335,1.9493326802800408
pierrelaye,Pierrelaye,49.01913673984224,2.1546634856409232
montsoult maffliers,Montsoult-Maffliers,49.06628869769714,2.3229204571938253
noisy le sec,Noisy-le-Sec,48.89665245114409,2.458363412015992
orgerus behoust,Orgerus-Béhoust,48.82657842806817,1.703218425476859
pont de rungis,Pont de Rungis,48.74834968236465,2.3731119407049346
port royal,Port Royal,48.840033787418086,2.3370964308800906
osny,Osny,49.06296967859719,2.0579029891616134
saint ouen l'aumone,Saint-Ouen-l'Aumône,49.04531164835026,2.105110703444508
sceaux,Sceaux,48.78135672132316,2.2976476777940333
souppes chateau landon,Souppes-Château-Landon,48.18093685578624,2.736249842909681
stade de france,Stade de France-Saint-Denis,48.91756717658464,2.350389537889768
sucy bonneuil,Sucy-Bonneuil,48.77170790696432,2.507482645714313
tacoignieres richebourg,Tacoignières-Richebourg,48.82942901532876,1.669010161365564
provins,Provins,48.5554261045623,3.301796476078171
saint gratien,Saint-Gratien,48.96358968487316,2.285930718208942
yerres,Yerres,48.7066109356985,2.4842425564350705
le val d'or,Le Val d'Or,48.85607083754508,2.2166014426812333
vanves malakoff,Vanves-Malakoff,48.81838763956166,2.2920618145543177
thieux nantouillet,Thieux-Nantouillet,49.00811401774286,2.6802524559732173
vert galant,Vert-Galant,48.944181065974725,2.5664480169630006
vigneux sur seine,Vigneux-sur-Seine,48.70812051426092,2.4138711503513184
villeparisis mitry le neuf,Villeparisis-Mitry-le-Neuf,48.95314838758261,2.6031353051184487
boran sur oise,Boran-sur-Oise,49.1667750398079,2.3623035285653566
crepy en valois,Crépy-en-Valois,49.23101806016452,2.887366704975862
bercy,Paris-Bercy,48.83908128024196,2.383028081146452
cluny la sorbonne,Cluny-La Sorbonne,48.851050282314304,2.344273345421352
la muette,La Muette,48.85804605538448,2.274154629736559
orly 4,Orly 4,48.72902398514277,2.3699132275101324
cernay,Cernay,48.98500470125916,2.2574741572503108
sceaux,Parc de Sceaux,48.76956333368779,2.309905064564246
porte maillot,Neuilly Porte Maillot,48.87790843816008,2.284431219916768
nointel mours,Nointel-Mours,49.13257770239181,2.2805153698198453
sevran beaudottes,Sevran-Beaudottes,48.9468939111449,2.524779047056861
vernon,Vernon,49.09153773356041,1.4778561780528563
precy sur oise,Précy-sur-Oise,49.203478442204485,2.3772985520921446
orly 1 2 3,Orly 1-2-3,48.729647355849934,2.3600134128581254
bois le roi,Bois-le-Roi,48.47552307237661,2.6920332598663994
boissy l'aillerie,Boissy-l'Aillerie,49.07584288482139,2.024952931375388
aeroport charles de gaulle 2 tgv,Aéroport Charles De Gaulle 2-TGV,49.00468746180567,2.57058948552452
breuillet village,Breuillet-Village,48.56432890676855,2.1703772591600425
chamarande,Chamarande,48.514245875300325,2.21551781194949
grand bourg,Grand-Bourg,48.64848911258699,2.435330530181304
gare du nord,Gare du Nord,48.88092200667149,2.356328543670162
meudon,Meudon,48.81488431421452,2.240919294866534
saint ouen,Saint-Ouen,48.9045663899011,2.3226263683342268
saint ouen l'aumone quartier de l'eglise,Saint-Ouen-l'Aumône - Quartier de l'Église,49.038963524940336,2.103461593344873
voves,Voves,48.27507823270663,1.6221196174276986
ferrieres fontenay,Ferrières Fontenay,48.09589243640809,2.7721048119391085
charles de gaulle etoile,Charles De Gaulle-Étoile,48.87514981972761,2.295904904713175
havre caumartin,Havre-Caumartin,48.87371340670775,2.3276954096301736
porte de clichy,Porte de Clichy,48.89425226223873,2.313772157405782
noisy le sec,Noisy-le-Sec,48.895915836203024,2.460330069519439
la fraternelle,La Fraternelle,48.74168449313643,2.3527953813100178
viroflay rive gauche,Viroflay Rive Gauche,48.80107761141683,2.1709674010790323
le bourget,Le Bourget,48.930287861801865,2.42338510679798
stade de france,Saint-Denis,48.93526614581904,2.347862407755533
nanterre universite,Nanterre-Université,48.90101049575467,2.2135566086399585
boulogne pont de saint cloud,Boulogne - Pont de Saint-Cloud,48.84074501612618,2.228536981491632
bobigny pablo picasso,Bobigny Pablo Picasso,48.9063747711693,2.4491899044793364
alesia,Alésia,48.82818847631351,2.3271646496078247
arts et metiers,Arts et Métiers,48.86532271167806,2.356729869173701
creteil universite,Créteil-Université,48.78992046688944,2.45051152829059
dugommier,Dugommier,48.83904114371398,2.389620014061439
brochant,Brochant,48.89058718661181,2.320174757151551
buttes chaumont,Buttes-Chaumont,48.87851411402383,2.3816145119289653
cambronne,Cambronne,48.84750708199681,2.302968297817314
carrefour pleyel,Carrefour Pleyel,48.91900755521728,2.342608014423156
champs elysees clemenceau,Champs-Élysées – Clemenceau,48.86760214522151,2.3138941304816147
commerce,Commerce,48.84479476371181,2.293951963648718
concorde,Concorde,48.86681836985009,2.3220828486761693
goncourt,Goncourt,48.86995751270301,2.3710948397312004
gabriel peri,Gabriel Péri,48.916382309922106,2.294685111702554
faidherbe chaligny,Faidherbe Chaligny,48.85017786279968,2.384092210055667
falguiere,Falguière,48.84447014129587,2.317852783041332
michel ange auteuil,Michel Ange-Auteuil,48.84789565020843,2.2640820307462217
la fourche,La Fourche,48.88718394686579,2.3257796748068915
le peletier,Le Peletier,48.87497174554318,2.34057598204372
les gobelins,Les Gobelins,48.83593030287887,2.3525422662627022
madeleine,Madeleine,48.86963317302492,2.326272274027749
mairie d'ivry,Mairie d'Ivry,48.81052080428471,2.384289600960821
passy,Passy,48.85744869007581,2.285812444146408
pasteur,Pasteur,48.842871275006345,2.3124475130659863
pere lachaise,Père Lachaise,48.86312321464208,2.3858824493261475
place des fetes,Place des Fêtes,48.87694984811022,2.3929839648173936
place d'italie,Place d'Italie,48.83143363013256,2.355643643033711
notre dame de lorette,Notre-Dame-de-Lorette,48.876047496005405,2.337495844533765
opera,Opéra,48.87130850300574,2.331493987087091
porte de montreuil,Porte de Montreuil,48.853772788014886,2.4118948370564355
strasbourg saint denis,Strasbourg-Saint-Denis,48.86962886377852,2.354468813108209
sully morland,Sully-Morland,48.85162059096899,2.3615249655078383
telegraphe,Télégraphe,48.87547445667917,2.398867596625601
porte de saint cloud,Porte de Saint-Cloud,48.83796121443632,2.2571222298326203
porte d'ivry,Porte d'Ivry,48.82135578381409,2.369290587346029
pyrenees,Pyrénées,48.87388185415816,2.385316215101792
quai de la gare,Quai de la Gare,48.83704512015793,2.3728257245425723
quatre septembre,Quatre Septembre,48.86963799688717,2.3362327568689163
saint denis porte de paris,Saint-Denis - Porte de Paris,48.929935889678696,2.3560357941727967
wagram,Wagram,48.88380920123339,2.304674440528396
vaugirard,Vaugirard,48.839516585402485,2.3011075162423964
les courtilles,Les Courtilles,48.93075700423553,2.284174448270923
porte des lilas,Porte des Lilas,48.87663081498978,2.406999582693831
gare de l'est,Gare de l'Est,48.87612635294891,2.358047505360746
montparnasse bienvenue,Montparnasse-Bienvenüe,48.84378130573586,2.3243970123857944
funiculaire montmartre station basse,Funiculaire Montmartre Station Basse,48.88468097372783,2.342660037336352
kleber,Kléber,48.87126214446096,2.2932406499473137
menilmontant,Ménilmontant,48.866446806067,2.383599109573657
montgallet,Montgallet,48.84406559730793,2.390482133980388
mairie de montreuil,Mairie de Montreuil,48.86229941281971,2.441521809411032
pigalle,Pigalle,48.88224953318808,2.3371645394451463
porte de bagnolet,Porte de Bagnolet,48.86460037337562,2.408031037075815
ternes,Ternes,48.87797270141956,2.2983103737615287
pre saint gervais,Pré Saint-Gervais,48.880271957029535,2.3984681722681724
rue du bac,Rue du Bac,48.85519632481491,2.325815566511529
villejuif leo lagrange,Villejuif - Léo Lagrange,48.80468812091137,2.3639531966021656
corentin celton,Corentin Celton,48.82708544889644,2.2794116820504207
lourmel,Lourmel,48.83873485883676,2.2821433781708915
mairie d'issy,Mairie d'Issy,48.82430937109403,2.273665557499754
porte d'auteuil,Porte d'Auteuil,48.847971541497,2.257744680363203
porte doree,Porte Dorée,48.83478515808142,2.405383210626772
quai de la rapee,Quai de la Rapée,48.8464846505702,2.36591010685298
porte de vanves,Porte de Vanves,48.82741485955381,2.306635926501743
les courtilles,Les Courtilles,48.93021421228678,2.283722557328397
porte de vincennes,Porte de Vincennes,48.84694815185174,2.409551429787372
gare d'austerlitz,Paris Austerlitz,48.84252802768359,2.36543338335276
montparnasse,Montparnasse,48.84118692024387,2.3205092275398846
gare d'austerlitz,Gare d'Austerlitz,48.84236008246694,2.365581702747744
gare de lyon,Gare de Lyon,48.84586897868619,2.373774422563834
porte de clichy,Porte de Clichy,48.89498081072532,2.312791961501292
hopital de montfermeil,Hôpital de Montfermeil,48.90095553754869,2.5708415546006806
cosmonautes,Cosmonautes,48.93173482548616,2.378225490397901
danton,Danton,48.92271118835301,2.4066227523546937
meudon sur seine,Meudon-sur-Seine,48.81917432913316,2.238598337792144
les milons,Les Milons,48.84985048784914,2.221232683266963
brancion,Brancion,48.828685551464886,2.3008019515606515
poterne des peupliers,Poterne des Peupliers,48.82087335522631,2.350932878064576
rougemont chanteloup,Rougemont-Chanteloup,48.93100567097312,2.514884565892148
les mobiles,Les Mobiles,48.94993773565708,2.328832171353944
mairie de villeneuve la garenne,Mairie de Villeneuve-la-Garenne,48.93560570835985,2.334332914535763
le luth,Le Luth,48.93181399693573,2.28865600459439
pont de bezons,Pont de Bezons,48.92326825505123,2.2175897993396423
severine,Séverine,48.86752135721476,2.4089789397445087
canal saint denis,Canal Saint-Denis,48.89873399065294,2.380537035488634
les flanades,Les Flanades,48.97666569235199,2.377419674665872
jacques prevert,Jacques Prévert,48.97088340423818,2.366003889114339
bretagne,Bretagne,48.7681898758743,2.368043000890793
porte de rungis,Porte de Rungis,48.752674350873576,2.3553609890875244
saarinen,Saarinen,48.75021318633971,2.3543918069383967
robert schuman,Robert Schuman,48.74656858663955,2.35287534133574
louvois,Louvois,48.780087151988496,2.196505812489855
leon blum,Léon Blum,48.90852701783088,2.5322874421850674
arboretum,Arboretum,48.89792357295678,2.5617143040426065
porte de charenton,Porte de Charenton,48.83199308710852,2.398350103858007
watteau rondenay,Watteau - Rondenay,48.778669697404055,2.3963579030386177
verdun hoche,Verdun Hoche,48.76844235887696,2.4028603221912608
carle darthe,Carle-Darthe,48.75920002947269,2.408875606162366
pave blanc,Pavé Blanc,48.7807309691502,2.23983201762499
drancy avenir,Drancy-Avenir,48.91778372525546,2.417691093337976
locheres,Lochères,48.97852462429191,2.385049192009275
parc andre malraux,Parc André Malraux,48.79988738317762,2.281951320169448
delaunay belleville,Delaunay-Belleville,48.94555553922784,2.3473129251675138
la belle epine,La Belle Épine,48.756701026335726,2.3683674663236243
cimetiere parisien d'ivry,Cimetière Parisien d'Ivry,48.812629376127376,2.3706612489603818
invalides,Invalides,48.86038127919816,2.314890730058881
parc px,Parc PX,49.01004496004054,2.5706400688904325
fontenay aux roses,Fontenay-aux-Roses,48.78756672836799,2.292988009258979
la plaine stade de france,La Plaine-Stade de France,48.91800820579238,2.362470767055213
asnieres sur seine,Asnières-sur-Seine,48.90581841159568,2.2830210860995246
chartres,Chartres,48.44806161515701,1.4801967914482197
maintenon,Maintenon,48.58676705859732,1.5926685170022563
chateaudun,Châteaudun,48.07340701012299,1.3384347632040494
etigny veron,Étigny-Veron,48.13757876952353,3.290315784213702
villeneuve sur yonne,Villeneuve-sur-Yonne,48.08536831047318,3.2866533026544835
chateau thierry,Château-Thierry,49.03791491657099,3.409457094674741
brunoy,Brunoy,48.69910694695422,2.506676982547088
joigny,Joigny,47.9737211384213,3.393308102299242
crimee,Crimée,48.890906449558166,2.377090439088876
charenton ecoles,Charenton-Écoles,48.821897939434606,2.413132938342708
chatelet,Châtelet,48.85928732517095,2.345803056189527
jaures,Jaurès,48.88162402899078,2.3702590567553905
creteil pointe du lac,Créteil - Pointe du Lac,48.76881073420608,2.464280070543357
strasbourg saint denis,Strasbourg-Saint-Denis,48.86940219665552,2.35381879359288
villiers,Villiers,48.88109442716628,2.3147210047461946
aime cesaire,Aimé Césaire,48.90808243782026,2.377741481106109
noisy le roi,Noisy-le-Roi,48.84130814686566,2.061451984613521
saint germain en laye,Saint-Germain-en-Laye,48.90171349442861,2.0952137438353384
petit chatenay,Petit-Châtenay,48.76272627164296,2.2806978452723565
la croix de berny,La Croix de Berny,48.76297047049109,2.3047519014655244
theatre la piscine,Théâtre La Piscine,48.76379364593003,2.272752403278821
coteaux de l'orge,Coteaux de l'Orge,48.66531992340216,2.362618263949531
porte dauphine,Porte Dauphine,48.87018041814154,2.274627543314604
anny flore,Anny Flore,48.88115461321984,2.2855056217327667
la defense,La Défense,48.89286497052017,2.2395681712170497
serge gainsbourg,Serge Gainsbourg,48.88131606223431,2.4271855777339173
coteaux beauclair,Coteaux Beauclair,48.88224373133741,2.4673561174182512
maison blanche,Maison Blanche,48.82142042957708,2.3590551543843183
nation,Nation,48.848474285974376,2.395062305425881
stade de france,Saint-Denis,48.93615562725767,2.346470902107097
nanterre universite,Nanterre-Université,48.90131105604062,2.213302314596661
boucicaut,Boucicaut,48.84109405724891,2.287945766487378
bourse,Bourse,48.86865415183625,2.3413760511435733
breguet sabin,Bréguet-Sabin,48.856140711155,2.370209339755372
bir hakeim,Bir-Hakeim,48.85394260621378,2.2893345327788075
argentine,Argentine,48.87533684211653,2.290127508824701
aubervilliers pantin quatre chemins,Aubervilliers Pantin - Quatre Chemins,48.90378388105197,2.392221222535117
daumesnil,Daumesnil,48.83954964556868,2.3957032894363937
ecole veterinaire de maisons alfort,École Vétérinaire de Maisons-Alfort,48.81480300700047,2.422376142845623
eglise d'auteuil,Église d'Auteuil,48.84715005481051,2.26913587274288
george v,George V,48.872023810399725,2.3005604512367213
franklin d. roosevelt,Franklin D. Roosevelt,48.86869984735294,2.309505157337887
europe,Europe,48.87877036758759,2.3222652131305974
jacques bonsergent,Jacques Bonsergent,48.87039638922484,2.3614002104327776
jussieu,Jussieu,48.846151122181325,2.354917983707404
maubert mutualite,Maubert-Mutualité,48.85008987805251,2.3482087741854687
miromesnil,Miromesnil,48.87373316560706,2.314743542030632
lamarck caulaincourt,Lamarck-Caulaincourt,48.88967407389343,2.338760650528743
liberte,Liberté,48.82662006546349,2.4058519439819017
louise michel,Louise Michel,48.88870601977514,2.288083633048504
louvre rivoli,Louvre-Rivoli,48.8608062912721,2.3411085916340664
parmentier,Parmentier,48.86525378605433,2.3745819699964126
pere lachaise,Père Lachaise,48.86218374787729,2.387835956453657
nationale,Nationale,48.83321671970985,2.362856399519012
place des fetes,Place des Fêtes,48.8768063892129,2.3930560919606623
place monge,Place Monge,48.84286683068267,2.352224728183084
opera,Opéra,48.87048333292661,2.3311863468516525
plaisance,Plaisance,48.83182565048563,2.3141223234590225
porte de choisy,Porte de Choisy,48.81987622105712,2.364531953109201
saint paul,Saint-Paul,48.85523625280238,2.360956490023829
sentier,Sentier,48.86751302499845,2.346552336353212
sevres lecourbe,Sèvres-Lecourbe,48.84562696674718,2.3095314914609446
porte de saint ouen,Porte de Saint-Ouen,48.89737479642877,2.3289428127683025
porte des lilas,Porte des Lilas,48.87717481930548,2.406480156998486
porte d'italie,Porte d'Italie,48.81922334960906,2.35970521674602
pyramides,Pyramides,48.86590673959417,2.3341895419682497
pyramides,Pyramides,48.86573786666654,2.33443771486555
rennes,Rennes,48.84845784944872,2.3277821284985807
republique,République,48.86799910892294,2.3650748610827645
republique,République,48.86760088010245,2.362757380002764
robespierre,Robespierre,48.85572642863316,2.422983216145876
saint denis universite,Saint-Denis - Université,48.94586727214251,2.3646364825042263
volontaires,Volontaires,48.84150552236008,2.3079486779742893
vavin,Vavin,48.84221841361353,2.329008926235403
les agnettes,Les Agnettes,48.92310377966602,2.2862795775297826
trocadero,Trocadéro,48.86361093764568,2.287580162529652
villejuif paul vaillant couturier,Villejuif Paul Vaillant-Couturier,48.79648308455054,2.3682695400496945
porte de clignancourt,Porte de Clignancourt,48.897402222898094,2.344847748752399
porte d'orleans,Porte d'Orléans,48.82315163312808,2.325509577822384
louis blanc,Louis Blanc,48.88094656356074,2.3649934724001813
louis blanc,Louis Blanc,48.881192119071,2.364378741179748
maisons alfort stade,Maisons-Alfort-Stade,48.809144361835415,2.4345098959239406
pont neuf,Pont Neuf,48.85855382636669,2.342232759368107
riquet,Riquet,48.88796756174982,2.3734568878525493
saint ambroise,Saint-Ambroise,48.86147646373029,2.373943508245182
pont de levallois,Pont de Levallois,48.8971540959649,2.280413812210846
porte d'italie,Porte d'Italie,48.81905151465142,2.3601297420152623
porte de versailles,Porte de Versailles,48.83187246749725,2.287207137822909
porte de la villette,Porte de la Villette,48.8974287355787,2.38658143311372
bercy,Bercy,48.84038874809587,2.3799112714543984
edgar quinet,Edgar Quinet,48.84066322929957,2.3263846107928465
maisons alfort les juilliottes,Maisons-Alfort-Les Juilliottes,48.80335523705089,2.4455741010301444
pont cardinet,Pont Cardinet,48.88956082831538,2.3151768973047844
mairie de saint ouen,Mairie de Saint-Ouen,48.91320209515785,2.334663150119759
porte de choisy,Porte de Choisy,48.81945368699376,2.3651909325792806
belvedere,Belvédère,48.8760012915015,2.22595909514488
gargan,Gargan,48.907272587063,2.516509893394616
freinville sevran,Freinville-Sevran,48.926503937809976,2.5191194854240337
marche de saint denis,Marché de Saint-Denis,48.93859447585233,2.355845266780604
les coquetiers,Les Coquetiers,48.89259978014814,2.499757185239508
les coteaux,Les Coteaux,48.85747140891036,2.220603560028727
liberation,Libération,48.90693183213432,2.438624497227672
lycee henri sellier,Lycée Henri Sellier,48.91609650409272,2.5150614461921545
parc de saint cloud,Parc de Saint-Cloud,48.84312439991252,2.221851494752013
blumenthal,Blumenthal,48.94780764959913,2.339180923415564
gilbert bonnemaison,Gilbert Bonnemaison,48.95543742610714,2.30787256835423
jacqueline auriol,Jacqueline Auriol,48.91080258974541,2.233988601425483
butte pinson,Butte Pinson,48.97359937603097,2.3660669758363624
mairie de pierrefitte,Mairie de Pierrefitte,48.9635023483776,2.360213791734574
baudelaire,Baudelaire,48.94212545510683,2.356729741525478
marche de saint denis,Marché de Saint-Denis,48.93894788361666,2.356334439358093
helene boucher,Hélène Boucher,48.73998743037822,2.359467821095852
centre de chatillon,Centre de Châtillon,48.80420493830302,2.289057253599707
mail de la plaine,Mail de la Plaine,48.78368721522512,2.246977649164128
georges pompidou,Georges Pompidou,48.78490216629836,2.237132704968192
cesar,César,48.949581345117245,2.342521826040313
republique marx dormoy,République Marx Dormoy,48.906628325845226,2.524048525746325
maurice audin,Maurice Audin,48.90841688638552,2.539173330939578
musee mac val,Musée MAC VAL,48.79289156930713,2.386206654643861
mairie de vitry,Mairie de Vitry,48.79042859452316,2.3882351403366835
camille groult,Camille Groult,48.78567213510769,2.3919914554961137
constant coquelin,Constant Coquelin,48.783005385498114,2.39383827034194
orly gaston viens,Orly - Gaston Viens,48.74499563825808,2.408318294770455
rose bertin,Rose Bertin,48.953168246764456,2.3154036121121684
hopital avicenne,Hôpital Avicenne,48.91583789288306,2.425009894274451
six routes,Six Routes,48.92997102620737,2.3847588600759844
auguste perret,Auguste Perret,48.76337515298246,2.36779053573481
dammartin juilly saint mard,Dammartin-Juilly-Saint-Mard,49.03227911091459,2.6992222536256385
bueil,Bueil,48.9253087971126,1.4434127390456777
sens,Sens,48.19836234231408,3.267371200334765
saint julien du sault,Saint-Julien-du-Sault,48.02663600207448,3.3027874650688505
chantilly gouvieux,Chantilly-Gouvieux,49.187087205195866,2.459549118844453
javel,Javel,48.84715690155799,2.278036281995908
andresy,Andrésy,48.97459610282988,2.0486730603847483
courbevoie,Courbevoie,48.89862464897339,2.249196508015125
conflans fin d'oise,Conflans-Fin-d'Oise,48.99195703589888,2.0753904501601403
la ferte alais,La Ferté-Alais,48.485514299822704,2.352193814586844
evreux,Évreux,49.01848665038226,1.1497406055270256
saint lazare,Saint-Lazare,48.87567210708072,2.327842235259621
anvers,Anvers,48.88297276782728,2.3446670737483
courcelles,Courcelles,48.87932978868225,2.3040703912187603
chatelet,Châtelet,48.859589655582816,2.346478183587595
chatelet,Châtelet,48.8597186619952,2.346768285736699
chaussee d'antin la fayette,Chaussée d'Antin - La Fayette,48.873252746484354,2.3339466825286297
saint lazare,Saint-Lazare,48.87542071665263,2.32547637444705
bastille,Bastille,48.85200903052056,2.36867458439179
ecole militaire,École Militaire,48.85489056687858,2.3064034857365168
blanche,Blanche,48.88355629016869,2.3333796724221587
alcide d'orbigny,Alcide d'Orbigny,48.96562485801046,2.363302264997833
epinay sur seine,Épinay-sur-Seine,48.95582939392718,2.3019910195900777
germaine tailleferre,Germaine Tailleferre,48.80334774848496,2.37779123068759
l'ile saint denis,L'Ile-Saint-Denis,48.93576727023479,2.339571144951487
barbara,Barbara,48.80970399753329,2.3174491879233723
les portes de saint cyr,Les Portes de Saint-Cyr,48.80661697936672,2.077227624843006
bailly,Bailly,48.837052612045234,2.0744435747033823
camp des loges,Camp des Loges,48.91391885076652,2.081675938422832
hopital beclere,Hôpital Béclère,48.78721089683679,2.253169144661627
parc des sports,Parc des Sports,48.77983639446138,2.2518931566215312
noveos,Noveos,48.77669474104493,2.250026069266826
massy europe,Massy Europe,48.723433035455024,2.272637936363908
longjumeau,Longjumeau,48.70223938711072,2.2945577492421245
amedee gordini,Amédée Gordini,48.65901888279668,2.373850621093476
evry courcouronnes,Évry - Courcouronnes,48.62468182599698,2.4275947804437275
anna de noailles,Anna de Noailles​,48.87456815028877,2.278256505242517
rosny bois perrier,Rosny-Bois-Perrier,48.88275159763064,2.4805111480606854
montreuil hopital,Montreuil - Hôpital,48.87833670193852,2.454714211064978
la dhuys,La Dhuys,48.87799338768989,2.4654717467571627
olympiades,Olympiades,48.82727083601133,2.3680326484142777
villejuif gustave roussy,Villejuif - Gustave Roussy,48.79305491267365,2.34936523945399
pont du garigliano,Pont du Garigliano,48.83908975542996,2.2704582437872425
boussy saint antoine,Boussy-Saint-Antoine,48.68101661634273,2.5331306565710374
le blanc mesnil,Le Blanc-Mesnil,48.93230541606913,2.475674370833512
boissise le roi,Boissise-le-Roi,48.52974691857647,2.572073662735743
arpajon,Arpajon,48.58600789080001,2.241070080902974
auber,Auber,48.87215749487708,2.329927170608276
auvers sur oise,Auvers-sur-Oise,49.07046236344272,2.17530420994616
bagneux,Bagneux,48.79333629623622,2.322201633670121
bessancourt,Bessancourt,49.03531130852121,2.2102465210570603
domont,Domont,49.03297204677151,2.336829689836827
dourdan la foret,Dourdan-la-Forêt,48.53562062258458,1.995901990362833
drancy,Drancy,48.93270621869947,2.4547663827657766
epinay sur seine,Épinay-sur-Seine,48.95349520337968,2.302346803591964
epone mezieres,Épône-Mézières,48.96334411275809,1.8090945087737835
cergy saint christophe,Cergy-Saint-Christophe,49.049647005256354,2.034294461852662
champigny,Champigny,48.80698507164625,2.510307237115641
changis saint jean,Changis-Saint-Jean,48.9591640630627,3.026111294286066
chatou croissy,Châtou-Croissy,48.88521121820845,2.155903471896522
chemin d'antony,Chemin d'Antony,48.74794190188695,2.3127110135157984
clamart,Clamart,48.81423944550172,2.274489672177882
conflans sainte honorine,Conflans-Sainte-Honorine,48.996630090664,2.097773988463467
fontenay le fleury,Fontenay-le-Fleury,48.80724661210162,2.040519204703665
marly le roi,Marly-le-Roi,48.87150310365913,2.0965482527553423
guerard la celle sur morin,Guérard-la-Celle-sur-Morin,48.81077532178037,2.9537303831019344
herblay,Herblay,48.99028999637594,2.161906605592158
etrechy,Étréchy,48.49364457849669,2.1945817005254264
gare de lyon,Gare de Lyon,48.84377257685146,2.3739164698064985
ivry sur seine,Ivry-sur-Seine,48.81398905200947,2.3916869716625384
maisse,Maisse,48.39364154774085,2.393410724066637
mantes station,Mantes-Station,48.98365450754101,1.7152109864475455
marles en brie,Marles-en-Brie,48.73493929649145,2.868955830083688
la grande paroisse,La Grande Paroisse,48.37864192828077,2.8963818990385235
les clairieres de verneuil,Les Clairières de Verneuil,48.99261388163914,1.9554792475346048
les gresillons,Les Grésillons,48.92087280435658,2.313835382457718
lognes,Lognes,48.83921929995165,2.6332109134176336
gare du nord,Magenta,48.88077520479297,2.35873295908786
parc des expositions,Parc des Expositions,48.97342490721537,2.514360285533493
petit jouy les loges,Petit-Jouy-les-Loges,48.77163431371264,2.1469727415128563
moret veneux les sablons,Moret-Veneux-les-Sablons,48.37859776792737,2.7993074292837794
moulin galant,Moulin-Galant,48.58715390715937,2.4734903663442247
saint quentin en yvelines,Saint-Quentin-en-Yvelines,48.787390238291614,2.044621988534177
sarcelles saint brice,Sarcelles-Saint-Brice,48.99600683049393,2.368684562796334
taverny,Taverny,49.02496079481305,2.222322692670585
roissy en brie,Roissy-en-Brie,48.79565482141207,2.6503876684411503
rosny bois perrier,Rosny-Bois-Perrier,48.88252792453506,2.481213457683429
rosny sur seine,Rosny-sur-Seine,48.99739200091921,1.6301676272984595
rueil malmaison,Rueil-Malmaison,48.88757361863876,2.172579447718415
stade de france,Saint-Denis,48.93445554506132,2.3456043781962905
villiers sur marne le plessis trevise,Villiers-sur-Marne - Le Plessis-Trévise,48.82326663412408,2.5426797940158528
viry chatillon,Viry-Châtillon,48.6760924339657,2.386783798391593
valmondois,Valmondois,49.09107345219079,2.20182348423606
vaucelles,Vaucelles,49.02177395624446,2.229376488386948
thun le paradis,Thun-le-Paradis,49.00670027774168,1.919237111731365
vaires torcy,Vaires-Torcy,48.87520826545472,2.6375907171679747
beauvais,Beauvais,49.42620159228319,2.088506972546535
bonneval,Bonneval,48.1864372095977,1.3862450209435095
puteaux,Puteaux,48.883334876553725,2.2338714337907755
aubergenville elisabethville,Aubergenville-Élisabethville,48.97214167690783,1.8483488082825013
bibliotheque francois mitterrand,Bibliothèque François Mitterrand,48.82888070077747,2.37769700026936
denfert rochereau,Denfert-Rochereau,48.83307317062929,2.333203670349575
bussy saint georges,Bussy-Saint-Georges,48.83653643294523,2.708981742262277
igny,Igny,48.74085330015774,2.2308399305579862
massy,Massy-Palaiseau,48.72509804119919,2.259946049525822
montgeron crosne,Montgeron-Crosne,48.70823782858165,2.462282244689792
montigny beauchamp,Montigny-Beauchamp,49.00776771927004,2.1965029019130347
saint cheron,Saint-Chéron,48.55092668030285,2.124937383537765
val d'argenteuil,Val d'Argenteuil,48.950651093090265,2.2325340087059704
villennes sur seine,Villennes-sur-Seine,48.93948681080073,1.999603609660236
terminal 2 gare tgv,Terminal 2 - Gare TGV,49.00472562449588,2.571294844435935
avenue foch,Avenue Foch,48.86983048899632,2.274808153642234
avenue henri martin,Avenue Henri Martin,48.86546235708394,2.2721593819194146
becon les bruyeres,Bécon-les-Bruyères,48.90576265710707,2.2699647791945137
charles de gaulle etoile,Charles De Gaulle-Étoile,48.874204186324654,2.2947732143825275
garancieres la queue,Garancières-La Queue,48.81047522542192,1.764581486740225
fontaine michalon,Fontaine-Michalon,48.743016569903006,2.295921406897603
issy,Issy,48.8193439626066,2.257893897515079
clamart,Issy-Val-de-Seine,48.83059547623919,2.264069650250568
juvisy,Juvisy,48.6895672569645,2.383833358799739
massy verrieres,Massy-Verrières,48.73488814734515,2.274002404484248
meaux,Meaux,48.956931426575984,2.8733647999355174
les essarts le roi,Les-Essarts-le-Roi,48.721915961058656,1.8900045636979848
pont cardinet,Pont-Cardinet,48.88822016276463,2.313732451520272
saint michel,Saint-Michel,48.85353290071982,2.3452883321974305
saint lazare,Saint-Lazare,48.87683695396951,2.3247380468366337
denfert rochereau,Denfert-Rochereau,48.83345085821352,2.331740130985349
charles de gaulle etoile,Charles De Gaulle-Étoile,48.87474865067991,2.2955602562131467
pereire levallois,Pereire-Levallois,48.88489625515052,2.297724346480177
nation,Nation,48.84737487872935,2.39546199483274
pont du garigliano,Pont du Garigliano,48.83807589055981,2.271174403433847
clamart,Issy-Val-de-Seine,48.82989015779482,2.26317856570046
saint ouen,Saint-Ouen,48.904496420574624,2.321743589558779
alma marceau,Alma-Marceau,48.86476684497177,2.3009910034955845
corvisart,Corvisart,48.82979051369297,2.350414872010464
couronnes,Couronnes,48.8690911620257,2.380542586000037
cour saint emilion,Cour Saint-Émilion,48.83333855925167,2.386632402066985
duroc,Duroc,48.84705255542817,2.3164243520508925
chatillon montrouge,Châtillon-Montrouge,48.810746486780936,2.3016785554824284
colonel fabien,Colonel Fabien,48.87761018741785,2.370811395312745
concorde,Concorde,48.86616711494919,2.323175680856618
gaite,Gaîté,48.838631646237154,2.322491748462238
gambetta,Gambetta,48.86516343488149,2.398746593442592
etienne marcel,Étienne Marcel,48.863972478817246,2.3496175641598405
felix faure,Félix Faure,48.84274677979288,2.2919124133178745
filles du calvaire,Filles du Calvaire,48.8632579449589,2.366661093353452
jaures,Jaurès,48.88246524557207,2.370157961739611
marcadet poissonniers,Marcadet-Poissonniers,48.89146500033268,2.349815453218361
marcel sembat,Marcel Sembat,48.83362878105417,2.2435786287393302
michel ange auteuil,Michel Ange-Auteuil,48.84793480789207,2.264218775687729
la tour maubourg,La Tour Maubourg,48.85772541289347,2.310565960946845
madeleine,Madeleine,48.87066702089795,2.325752635286725
mairie des lilas,Mairie des Lilas,48.87976125309794,2.416479643681515
pasteur,Pasteur,48.84267681998372,2.3128127748369023
pelleport,Pelleport,48.86844016327547,2.401561712742542
place de clichy,Place de Clichy,48.8838045280338,2.3272434105874065
place d'italie,Place d'Italie,48.830972672988366,2.3555802740779104
saint placide,Saint-Placide,48.84687823885142,2.3267927850276813
sevres babylone,Sèvres-Babylone,48.8510317512393,2.3261023128241907
sevres babylone,Sèvres-Babylone,48.85176205249548,2.326822568897497
simplon,Simplon,48.894343848842425,2.347430779960205
solferino,Solférino,48.85849912371638,2.323167611246745
temple,Temple,48.866514461743,2.3608035032752688
porte de pantin,Porte de Pantin,48.88841747876783,2.3917844509634323
porte de versailles,Porte de Versailles,48.83244909914335,2.2880221411003245
porte des lilas,Porte des Lilas,48.87711051176337,2.40672924554309
reaumur sebastopol,Réaumur Sébastopol,48.8664963437902,2.3513589155329915
republique,République,48.86778030055016,2.3629287001561123
reuilly diderot,Reuilly-Diderot,48.84717991006959,2.385243715115072
saint jacques,Saint-Jacques,48.83290081566025,2.3371351933439004
mairie de montrouge,Mairie de Montrouge,48.818676409912605,2.3197403132985555
bercy,Bercy,48.8400013886488,2.3795540112141405
montparnasse bienvenue,Montparnasse Bienvenüe,48.84373548931853,2.3243530411579663
montparnasse bienvenue,Montparnasse-Bienvenüe,48.84232743772649,2.320984834266813
abbesses,Abbesses,48.884594208027806,2.3379497756920697
bobigny pantin raymond queneau,Bobigny-Pantin - Raymond Queneau,48.89545467305272,2.4253268901662555
champs elysees clemenceau,Champs-Élysées – Clemenceau,48.8679053448971,2.313545549946741
garibaldi,Garibaldi,48.90609405024863,2.3318308379624098
saint sulpice,Saint-Sulpice,48.851071370372,2.3307007099542143
porte de vincennes,Porte de Vincennes,48.847335584614896,2.408089407236094
saint mande,Saint-Mandé,48.84642307728704,2.418759786698672
chardon lagache,Chardon Lagache,48.84520470358118,2.266441541719401
mabillon,Mabillon,48.8530167679172,2.335502051727558
philippe auguste,Philippe Auguste,48.85806226176241,2.3908609523236084
voltaire,Voltaire,48.85787849486676,2.3800206442479825
balard,Balard,48.83612298019267,2.2781191783109924
porte de vincennes,Porte de Vincennes,48.847393890496086,2.40965605640417
chatillon montrouge,Châtillon-Montrouge,48.810601094494544,2.3003574744281328
porte maillot,Porte Maillot,48.87755125180425,2.2831622422302296
auguste delaune,Auguste Delaune,48.90670063080093,2.4605234036744186
desnouettes,Desnouettes,48.83435816545286,2.284007243303418
brimborion,Brimborion,48.82230993293688,2.2313231598737806
jacques henri lartigue,Jacques-Henri Lartigue,48.82470768572638,2.260481575638462
la remise a jorelle,La Remise à Jorelle,48.893094628632376,2.487910986261173
les moulineaux,Les Moulineaux,48.82151752251,2.251336154852571
les pavillons sous bois,Les Pavillons-sous-Bois,48.90267810278449,2.511939934333314
henri farman,Henri Farman,48.83475001035515,2.27124150093783
epinay orgemont,Épinay-Orgemont,48.95550447711861,2.295591694903069
avenue de france,Avenue de France,48.82557023489851,2.3811655878010223
delphine seyrig,Delphine Seyrig,48.893880282529935,2.3977388506469794
colette besson,Colette Besson,48.898491101556885,2.3636513821811374
paul valery,Paul Valéry,48.97927612626856,2.380204254325136
joncherolles,Joncherolles,48.95557634800801,2.358322856150864
roger semat,Roger Sémat,48.944818932672064,2.3570063564706416
porte de l'essonne,Porte de l'Essonne,48.71451272529018,2.3717471434643644
place de la logistique,Place de la Logistique,48.75281135969812,2.3619521525825644
pierre de geyter,Pierre De Geyter,48.93205182271299,2.352701984386339
asnieres quatre routes,Asnières Quatre Routes,48.92725061060059,2.2743361323893048
romain rolland,Romain Rolland,48.904738844718565,2.547921374008685
christophe colomb,Christophe Colomb,48.75210595367802,2.416948755609278
hopital beclere,Hôpital Béclère,48.78669993585199,2.2544627619612347
musee de sevres,Musée de Sèvres,48.82901050369442,2.22531285326707
theatre gerard philipe,Théâtre Gérard Philipe,48.93750989644163,2.350400018540065
les fauvelles,Les Fauvelles,48.90276802555434,2.23954203495258
chateaudun barbes,Châteaudun - Barbès,48.81556895548396,2.368339634703194
eragny neuville,Éragny-Neuville,49.01768620964943,2.090181620991014
hericy,Héricy,48.44267432598409,2.760717507352473
saint piat,Saint-Piat,48.54266517169148,1.5900790461663166
champigny sur yonne,Champigny-sur-Yonne,48.324023980597545,3.1304207630989667
trie chateau,Trie-Château,49.28258723638876,1.8182711456225624
evry courcouronnes,Évry Courcouronnes,48.62590139491631,2.4301553860113567
la borne blanche,La Borne Blanche,49.12620996065864,2.507013841603866
la verriere,La Verrière,48.75518504199213,1.9430499444004303
javel andre citroen,Javel - André Citroën,48.84615720483247,2.278400386366102
bondy,Bondy,48.8938058606185,2.4820329224074715
la villette saint prest,La Villette-Saint-Prest,48.48258219637525,1.5243595289461649
barbes rochechouart,Barbès-Rochechouart,48.8834180885266,2.349674832582202
belleville,Belleville,48.87228310892801,2.37673072170184
croix de chavaux,Croix de Chavaux,48.85778351458649,2.434538451473474
cadet,Cadet,48.87600859381197,2.3445724820893283
chaussee d'antin la fayette,Chaussée d'Antin - La Fayette,48.87280447590615,2.3344562913768514
convention,Convention,48.837099428223645,2.296231386803389
laumiere,Laumière,48.884970562766206,2.378716923224645
basilique de saint denis,Basilique de Saint-Denis,48.93677678991262,2.3593662963605984
chemin vert,Chemin Vert,48.85710325815475,2.368184114950699
gambetta,Gambetta,48.86497810787772,2.396912847086626
la chapelle,La Chapelle,48.8843996770653,2.360399500808732
pigalle,Pigalle,48.88222543392857,2.3382334685046176
exelmans,Exelmans,48.84241277035873,2.259608472752572
franklin d. roosevelt,Franklin D. Roosevelt,48.86943888165912,2.308607493526256
la noue,La Noue,48.934994160578015,2.326951043779736
alexandra david neel,Alexandra David-Néel,48.843700739992194,2.410109555597318
honore de balzac,Honoré de Balzac,48.8963084706968,2.318804401344239
four peary,Four-Peary,48.754545443940366,2.411900230949817
saint cyr,Saint-Cyr,48.79900981083569,2.0747465772642184
l'etang les sablons,L'Etang - Les Sablons,48.872154106313744,2.0687099863177365
le hameau,Le Hameau,48.78259287270798,2.253128058907652
vallee aux loups,Vallée aux Loups,48.766383427717415,2.25488776388709
les peintres,Les Peintres,48.76472017954991,2.2658848665512106
ferme neuve,Ferme Neuve,48.652128692965135,2.3834023771622075
bois de saint eutrope,Bois de Saint-Eutrope,48.63395897487315,2.3953415083710685
traite de rome,Traité de Rome,48.625084210003685,2.407576768063948
porte maillot,Porte Maillot,48.87793813782425,2.283913993903496
therese pierre,Thérèse Pierre,48.88342328560661,2.2880331154619915
porte de champerret,Porte de Champerret​,48.88597054515737,2.29213548034954
nanterre la folie,Nanterre - La Folie,48.89758664840728,2.223738843023636
romainville carnot,Romainville - Carnot,48.8831359021221,2.44082220524926
chevilly larue,Chevilly - Larue,48.75955015404931,2.366485372253663
l'hay les roses,L'Haÿ - les - Roses,48.77531361288962,2.354364943199496
saint denis pleyel,Saint-Denis – Pleyel,48.91746894101899,2.3465446215359846
bretigny,Brétigny,48.606744948948126,2.302059691582639
bois colombes,Bois-Colombes,48.91424647429559,2.2715987503897543
acheres grand cormier,Achères-Grand-Cormier,48.95540224453112,2.093521901580612
couilly saint germain quincy,Couilly-Saint-Germain-Quincy,48.88268104666968,2.8543159264638955
courcelle sur yvette,Courcelle-sur-Yvette,48.70121772031537,2.097975858420524
deuil montmagny,Deuil-Montmagny,48.97605425313049,2.338524070645141
dourdan,Dourdan,48.53373283397724,2.0087718138734374
epinay villetaneuse,Épinay-Villetaneuse,48.95810052238404,2.328463877708284
bures sur yvette,Bures-sur-Yvette,48.696252747814434,2.1643782427741725
champagne sur oise,Champagne-sur-Oise,49.136000564590994,2.242677776778168
chaponval,Chaponval,49.06931413549864,2.1416969327799587
coignieres,Coignières,48.74348398592533,1.921036600039738
colombes,Colombes,48.92391862656037,2.2593457030521504
combs la ville quincy,Combs-la-Ville - Quincy,48.667901961049886,2.5475480458143664
compans,Compans,48.99139140287416,2.6650598693073007
gentilly,Gentilly,48.81522993471633,2.340891132444595
gretz armainvilliers,Gretz-Armainvilliers,48.74645232070457,2.7272293714297664
houdan,Houdan,48.79602536780064,1.602701692990599
ermont eaubonne,Ermont-Eaubonne,48.98024590668104,2.2691322741328266
etampes,Étampes,48.4369239376403,2.1595305875651545
isles armentieres congis,Isles-Armentières-Congis,48.998415393201626,3.007953055749719
issou porcheville,Issou-Porcheville,48.97929224854445,1.7839734077298488
massy,Massy-Palaiseau,48.7259970920586,2.258322993611241
meriel,Mériel,49.07769904281829,2.2054467255247348
montfort l'amaury mere,Montfort-L'Amaury-Méré,48.8026019809067,1.816466794198607
la hacquiniere,La Hacquinière,48.695264122108014,2.151642038623571
le perray,Le Perray,48.6930965912168,1.8565920652871293
le vert de maisons,Le Vert-de-Maisons,48.78846667355173,2.432243533360699
le vesinet centre,Le Vésinet-Centre,48.89008623555386,2.134600875228717
les ardoines,Les Ardoines,48.78222618353015,2.4095902349857026
les mureaux,Les Mureaux,48.9925919547515,1.91353050809466
les noues,Les Noues,49.03318276903128,2.478033365115082
louveciennes,Louveciennes,48.86121452860314,2.123191095956036
lozere,Lozère,48.70596898482229,2.212262378017493
luzarches,Luzarches,49.11713213147005,2.420107032801724
ozoir la ferriere,Ozoir-la-Ferrière,48.7707789170597,2.6902527821957585
pantin,Pantin,48.8981123062804,2.400361703159176
nanterre ville,Nanterre-Ville,48.89512589133458,2.195363986912901
nogent sur marne,Nogent-sur-Marne,48.83428889889616,2.471681242571033
montigny sur loing,Montigny-sur-Loing,48.33648178061324,2.7380016185325884
mortcerf,Mortcerf,48.78949667687372,2.907387270372533
mouroux,Mouroux,48.813798482127474,3.042938266046296
nanterre prefecture,Nanterre-Préfecture,48.89574531120744,2.2232129684066617
orangis bois de l'epine,Orangis-Bois de l'Epine,48.63635136710196,2.4077962861739057
orly ville,Orly Ville,48.741878705678886,2.40290860736794
orsay ville,Orsay-Ville,48.69750567080332,2.1810544390412185
plaisir grignon,Plaisir-Grignon,48.831916184318544,1.9444017580668456
saint michel sur orge,Saint-Michel-sur-Orge,48.63587586133944,2.3068331640148254
seugy,Seugy,49.11902264630466,2.399724852518912
sevran livry,Sevran-Livry,48.936280185651775,2.534714974742524
suresnes mont valerien,Suresnes-Mont-Valérien,48.87171419115657,2.2210295504311297
survilliers fosses,Survilliers-Fosses,49.099586939193706,2.525531713992054
ris orangis,Ris-Orangis,48.658975423830064,2.415206841330065
rosny sous bois,Rosny-sous-Bois,48.869912419186086,2.485761140611789
saint mammes,Saint-Mammès,48.382689435007,2.816578770848898
vitry sur seine,Vitry-sur-Seine,48.80020939834459,2.40271281718153
vaucresson,Vaucresson,48.836643318031946,2.1526974002762644
vernou sur seine,Vernou-sur-Seine,48.38677098743939,2.842037388815224
trilport,Trilport,48.96022649073596,2.9500603827528087
val de fontenay,Val de Fontenay,48.85426899363538,2.489167460948015
viarmes,Viarmes,49.11662788250494,2.368253547610189
villabe,Villabé,48.59281219034078,2.461550180897489
auneau,Auneau,48.4452537046015,1.7795837097232072
villeneuve la guyard,Villeneuve-la-Guyard,48.34261368016397,3.0717464537431387
saint leu d'esserent,Saint-Leu d’Esserent,49.21379080353853,2.417033174921132
ormoy villers,Ormoy-Villers,49.200877079101126,2.838108478036552
rosa parks,Rosa Parks,48.89658112861537,2.373819005403212
porte de clichy,Porte de Clichy,48.89416838621195,2.315599220546768
gare du nord,Gare du Nord,48.88175948915267,2.357570193470877
jouy en josas,Jouy-en-Josas,48.76477601295292,2.163947085881832
pereire levallois,Pereire-Levallois,48.88604139991642,2.299279102380644
neuilly plaisance,Neuilly-Plaisance,48.85290746280475,2.5143124384334405
versailles chateau,Versailles Château,48.80021557813598,2.1290438673702554
villiers montbarbin,Villiers-Montbarbin,48.86355614433575,2.882591322662619
val d'europe,Val d'Europe,48.854824962724784,2.772428148255365
saint nom la breteche foret de marly,Saint-Nom-la-Bretèche - Forêt de Marly,48.86736622582101,2.0512820494280524
dordives,Dordives,48.14721803993117,2.7627283885437963
bonnieres,Bonnières,49.038762044753305,1.5815321023350182
bougival,Bougival,48.85425170349276,2.132132445251102
boigneville,Boigneville,48.34166354461878,2.3788154433118907
ballancourt,Ballancourt,48.531501986486845,2.3705184977367075
egly,Égly,48.58272468807368,2.223448833583109
cergy le haut,Cergy Le Haut,49.04787620336899,2.0109997600036325
champ de mars,Champ de Mars,48.85645721154175,2.2898035182585
la defense,La Défense,48.89168813894621,2.238595217338472
neuville universite,Neuville Université,49.01413368498304,2.078306591409993
montreuil,Montreuil,48.80594060579477,2.1529930703695093
montry conde,Montry-Condé,48.89085679631404,2.826405497304068
saint germain en laye,Saint-Germain-en-Laye,48.89807641113002,2.0948366282977533
saint michel,Saint-Michel,48.85211888263096,2.34402115205528
vincennes,Vincennes,48.84734036417028,2.432434660260661
nogent l'artaud charly,Nogent-l'Artaud-Charly,48.968760793584806,3.322797562570164
gare de lyon,Gare de Lyon,48.843486761806766,2.3739225903167545
gare du nord,Gare du Nord,48.880195487135886,2.3576332046800537
nation,Nation,48.84894464506383,2.3958794351856887
saint michel,Saint-Michel,48.85316798489062,2.343285978923924
saint lazare,Saint-Lazare,48.87571908982334,2.324224580938853
